[{worldCityList:[{name:"奥林匹亚 - 希腊",index:0,lat:37.633300,lng:21.616759,date:"2008/03/24", info:"", attribution:"", link:"http://www.google.cn/search?q=olympia&hl=zh-CN"},
{name:"北京 - 中国",index:1,lat:39.908170,lng:116.397945,date:"2008/03/31", info:"", attribution:"", link:"http://www.google.cn/search?q=beijing&hl=zh-CN"},
{name:"阿拉木图 - 哈萨克斯坦",index:2,lat:43.275800,lng:76.929200,date:"2008/04/02", info:"", attribution:"", link:"http://www.google.cn/search?q=almaty&hl=zh-CN"},
{name:"伊斯坦布尔 - 土耳其",index:3,lat:41.036501,lng:28.984895,date:"2008/04/03", info:"", attribution:"", link:"http://www.google.cn/search?q=istanbul&hl=zh-CN"},
{name:"圣彼得堡 - 俄罗斯",index:4,lat:59.939039,lng:30.315785,date:"2008/04/05", info:"", attribution:"", link:"http://www.google.cn/search?q=saint+petersburg&hl=zh-CN"},
{name:"伦敦 - 英国",index:5,lat:51.500152,lng:-0.126236,date:"2008/04/06", info:"", attribution:"", link:"http://www.google.cn/search?q=london&hl=zh-CN"},
{name:"巴黎 - 法国",index:6,lat:48.856558,lng:2.350966,date:"2008/04/07", info:"", attribution:"", link:"http://www.google.cn/search?q=paris&hl=zh-CN"},
{name:"旧金山 - 美国",index:7,lat:37.779160,lng:-122.420090,date:"2008/04/09", info:"", attribution:"", link:"http://www.google.cn/search?q=san+francisco&hl=zh-CN"},
{name:"布宜诺斯艾利斯 - 阿根廷",index:8,lat:-34.611781,lng:-58.417309,date:"2008/04/11", info:"", attribution:"", link:"http://www.google.cn/search?q=buenos+aries&hl=zh-CN"},
{name:"达累斯萨拉姆 - 坦桑尼亚",index:9,lat:-6.819800,lng:39.279900,date:"2008/04/13", info:"", attribution:"", link:"http://www.google.cn/search?q=dar+es+sallam&hl=zh-CN"},
{name:"马斯喀特 - 阿曼",index:10,lat:23.608600,lng:58.592200,date:"2008/04/14", info:"", attribution:"", link:"http://www.google.cn/search?q=muscat&hl=zh-CN"},
{name:"伊斯兰堡 - 巴基斯坦",index:11,lat:30.516667,lng:72.800000,date:"2008/04/16", info:"", attribution:"", link:"http://www.google.cn/search?q=islamabad&hl=zh-CN"},
{name:"孟买 - 印度",index:12,lat:28.634329,lng:77.226334,date:"2008/04/17", info:"", attribution:"", link:"http://www.google.cn/search?q=new+delhi&hl=zh-CN"},
{name:"曼谷 - 泰国",index:13,lat:13.730780,lng:100.521004,date:"2008/04/19", info:"", attribution:"", link:"http://www.google.cn/search?q=bangkok&hl=zh-CN"},
{name:"吉隆坡 - 马来西亚",index:14,lat:3.124333,lng:101.684376,date:"2008/04/21", info:"", attribution:"", link:"http://www.google.cn/search?q=kuala+lumpur&hl=zh-CN"},
{name:"雅加达 - 印度尼西亚",index:15,lat:-6.186190,lng:106.806300,date:"2008/04/22", info:"", attribution:"", link:"http://www.google.cn/search?q=jakarta&hl=zh-CN"},
{name:"堪培拉 - 澳大利亚",index:16,lat:-35.282040,lng:149.128580,date:"2008/04/24", info:"", attribution:"", link:"http://www.google.cn/search?q=canberra&hl=zh-CN"},
{name:"长野 - 日本",index:17,lat:36.643010,lng:138.188700,date:"2008/04/26", info:"", attribution:"", link:"http://www.google.cn/search?q=nagano&hl=zh-CN"},
{name:"首尔 - 韩国",index:18,lat:37.532308,lng:126.957440,date:"2008/04/27", info:"", attribution:"", link:"http://www.google.cn/search?q=seoul&hl=zh-CN"},
{name:"平壤 - 朝鲜",index:19,lat:39.031859,lng:125.753765,date:"2008/04/28", info:"", attribution:"", link:"http://www.google.cn/search?q=pyongyang&hl=zh-CN"},
{name:"胡志明市 - 越南",index:20,lat:10.772462,lng:106.678555,date:"2008/04/29", info:"", attribution:"", link:"http://www.google.cn/search?q=ho+chi+minh+city&hl=zh-CN"},
{name:"香港 - 中国",index:21,lat:22.396428,lng:114.109497,date:"2008/05/02", info:"", attribution:"", link:"http://www.google.cn/search?q=hong+kong&hl=zh-CN"},
{name:"澳门 - 中国",index:22,lat:22.198745,lng:113.543873,date:"2008/05/03", info:"", attribution:"", link:"http://www.google.cn/search?q=macau&hl=zh-CN"}]},
{chinaProvList:[{name:"海南省",index:0,lat:20.032303,lng:110.320198,date:"2008/05/04-2008/05/06"},{name:"广东省",index:1,lat:23.134104,lng:113.322323,date:"2008/05/07-2008/05/10"},{name:"福建省",index:2,lat:26.076104,lng:119.306409,date:"2008/05/11-2008/05/13"},{name:"江西省",index:3,lat:28.678757,lng:115.897365,date:"2008/05/14-2008/05/16"},{name:"浙江省",index:4,lat:30.273976,lng:120.172973,date:"2008/05/17-2008/05/19"},{name:"上海市",index:5,lat:31.224353,lng:121.475914,date:"2008/05/20-2008/05/21"},{name:"江苏省",index:6,lat:32.075780,lng:118.799470,date:"2008/05/22-2008/05/24"},{name:"安徽省",index:7,lat:31.869345,lng:117.295755,date:"2008/05/26-2008/05/28"},{name:"湖北省",index:8,lat:30.578140,lng:114.281460,date:"2008/05/29-2008/05/31"},{name:"湖南省",index:9,lat:28.208468,lng:113.009347,date:"2008/06/01-2008/06/03"},{name:"广西壮族自治区",index:10,lat:22.806264,lng:108.317081,date:"2008/06/04-2008/06/06"},{name:"云南省",index:11,lat:25.049893,lng:102.703300,date:"2008/06/07-2008/06/09"},{name:"贵州省",index:12,lat:26.567955,lng:106.708617,date:"2008/06/10-2008/06/12"},{name:"重庆市",index:13,lat:29.554917,lng:106.548426,date:"2008/06/13-2008/06/14"},{name:"四川省",index:14,lat:30.658120,lng:104.065828,date:"2008/06/15-2008/06/18"},{name:"西藏自治区",index:15,lat:29.654967,lng:91.119239,date:"2008/06/19-2008/06/21"},{name:"青海省",index:16,lat:36.624350,lng:101.804810,date:"2008/06/22-2008/06/24"},{name:"新疆维吾尔自治区",index:17,lat:43.796078,lng:87.603809,date:"2008/06/25-2008/06/27"},{name:"甘肃省",index:18,lat:36.062420,lng:103.793330,date:"2008/06/28-2008/06/30"},{name:"宁夏回族自治区",index:19,lat:38.466490,lng:106.270750,date:"2008/07/02-2008/07/04"},{name:"陕西省",index:20,lat:34.264915,lng:108.954401,date:"2008/07/05-2008/07/07"},{name:"山西省",index:21,lat:37.855122,lng:112.531482,date:"2008/07/08-2008/07/10"},{name:"内蒙古自治区",index:22,lat:40.808262,lng:111.666650,date:"2008/07/11-2008/07/13"},{name:"黑龙江省",index:23,lat:45.761273,lng:126.652187,date:"2008/07/14-2008/07/16"},{name:"吉林省",index:24,lat:43.886862,lng:125.324793,date:"2008/07/17-2008/07/19"},{name:"辽宁省",index:25,lat:41.805674,lng:123.434041,date:"2008/07/20-2008/07/22"},{name:"山东省",index:26,lat:36.659354,lng:117.020598,date:"2008/07/23-2008/07/26"},{name:"河南省",index:27,lat:34.761869,lng:113.663040,date:"2008/07/28-2008/07/31"},{name:"河北省",index:28,lat:38.048270,lng:114.476493,date:"2008/08/01-2008/08/03"},{name:"天津市",index:29,lat:39.103853,lng:117.252380,date:"2008/08/04-2008/08/05"},{name:"北京市",index:30,lat:39.908170,lng:116.397945,date:"2008/08/06-2008/08/08"}]},
{chinaCityList:[{name:"三亚市",index:0,lat:18.235517,lng:109.513615,date:"2008/05/04",prtIndex:0},{name:"五指山市",index:1,lat:18.775580,lng:109.513860,date:"2008/05/05",prtIndex:0},{name:"万宁市",index:2,lat:18.797120,lng:110.396120,date:"2008/05/05",prtIndex:0},{name:"海口市",index:3,lat:20.032303,lng:110.320198,date:"2008/05/06",prtIndex:0},{name:"广州市",index:4,lat:23.134104,lng:113.322323,date:"2008/05/07",prtIndex:1},{name:"深圳市",index:5,lat:22.542149,lng:114.055573,date:"2008/05/08",prtIndex:1},{name:"惠州市",index:6,lat:23.093804,lng:114.399613,date:"2008/05/09",prtIndex:1},{name:"汕头市",index:7,lat:23.360103,lng:116.723734,date:"2008/05/10",prtIndex:1},{name:"福州市",index:8,lat:26.076104,lng:119.306409,date:"2008/05/11",prtIndex:2},{name:"泉州市",index:9,lat:24.929500,lng:118.584515,date:"2008/05/12",prtIndex:2},{name:"厦门市",index:10,lat:24.479275,lng:118.101942,date:"2008/05/12",prtIndex:2},{name:"龙岩市",index:11,lat:25.100520,lng:117.026370,date:"2008/05/13",prtIndex:2},{name:"瑞金市",index:12,lat:25.869110,lng:116.026610,date:"2008/05/14",prtIndex:3},{name:"井冈山市",index:13,lat:26.587142,lng:114.100822,date:"2008/05/15",prtIndex:3},{name:"南昌市",index:14,lat:28.678757,lng:115.897365,date:"2008/05/16",prtIndex:3},{name:"温州市",index:15,lat:28.027019,lng:120.637517,date:"2008/05/17",prtIndex:4},{name:"绍兴市",index:16,lat:30.003591,lng:120.592991,date:"2008/05/17",prtIndex:4},{name:"杭州市",index:17,lat:30.273976,lng:120.172973,date:"2008/05/18",prtIndex:4},{name:"宁波市",index:18,lat:29.868335,lng:121.543994,date:"2008/05/19",prtIndex:4},{name:"嘉兴市",index:19,lat:29.868335,lng:121.543994,date:"2008/05/19",prtIndex:4},{name:"上海市",index:20,lat:31.224353,lng:121.475914,date:"2008/05/20-2008/05/21",prtIndex:5},{name:"苏州市",index:21,lat:31.320548,lng:120.638690,date:"2008/05/22",prtIndex:6},{name:"南通市",index:22,lat:32.011623,lng:120.870434,date:"2008/05/22",prtIndex:6},{name:"泰州市",index:23,lat:32.461662,lng:119.920847,date:"2008/05/23",prtIndex:6},{name:"扬州市",index:24,lat:32.419474,lng:119.412865,date:"2008/05/23",prtIndex:6},{name:"南京市",index:25,lat:32.075780,lng:118.799470,date:"2008/05/24",prtIndex:6},{name:"合肥市",index:26,lat:31.869345,lng:117.295755,date:"2008/05/26",prtIndex:7},{name:"淮南市",index:27,lat:32.648630,lng:117.026370,date:"2008/05/27",prtIndex:7},{name:"芜湖市",index:28,lat:31.327276,lng:118.375749,date:"2008/05/27",prtIndex:7},{name:"绩溪县",index:29,lat:30.059590,lng:118.591920,date:"2008/05/28",prtIndex:7},{name:"黄山市",index:30,lat:29.712603,lng:118.305423,date:"2008/05/28",prtIndex:7},{name:"武汉市",index:31,lat:30.578140,lng:114.281460,date:"2008/05/29",prtIndex:8},{name:"宜昌市",index:32,lat:30.701171,lng:111.294857,date:"2008/05/30",prtIndex:8},{name:"荆州市",index:33,lat:30.325221,lng:112.245363,date:"2008/05/31",prtIndex:8},{name:"岳阳市",index:34,lat:29.366316,lng:113.108197,date:"2008/06/01",prtIndex:9},{name:"长沙市",index:35,lat:28.208468,lng:113.009347,date:"2008/06/02",prtIndex:9},{name:"韶山市",index:36,lat:27.936382,lng:112.523545,date:"2008/06/03",prtIndex:9},{name:"桂林市",index:37,lat:25.282673,lng:110.284867,date:"2008/06/04",prtIndex:10},{name:"南宁市",index:38,lat:22.806264,lng:108.317081,date:"2008/06/05",prtIndex:10},{name:"百色市",index:39,lat:23.890860,lng:106.605830,date:"2008/06/06",prtIndex:10},{name:"昆明市",index:40,lat:25.049893,lng:102.703300,date:"2008/06/07",prtIndex:11},{name:"丽江市",index:41,lat:26.877980,lng:100.239260,date:"2008/06/08",prtIndex:11},{name:"香格里拉",index:42,lat:27.858500,lng:99.678960,date:"2008/06/09",prtIndex:11},{name:"贵阳市",index:43,lat:26.567955,lng:106.708617,date:"2008/06/10",prtIndex:12},{name:"凯里市",index:44,lat:26.588530,lng:107.979130,date:"2008/06/11",prtIndex:12},{name:"遵义市",index:45,lat:27.688390,lng:106.924440,date:"2008/06/12",prtIndex:12},{name:"重庆市",index:46,lat:29.554917,lng:106.548426,date:"2008/06/13-2008/06/14",prtIndex:13},{name:"广安市",index:47,lat:30.472350,lng:106.638790,date:"2008/06/15",prtIndex:14},{name:"绵阳市",index:48,lat:31.455876,lng:104.774265,date:"2008/06/15",prtIndex:14},{name:"广汉市",index:49,lat:30.982320,lng:104.282230,date:"2008/06/16",prtIndex:14},{name:"乐山市",index:50,lat:29.586614,lng:103.746373,date:"2008/06/16",prtIndex:14},{name:"自贡市",index:51,lat:29.353381,lng:104.770243,date:"2008/06/17",prtIndex:14},{name:"宜宾市",index:52,lat:28.759226,lng:104.628696,date:"2008/06/17",prtIndex:14},{name:"成都市",index:53,lat:30.658120,lng:104.065828,date:"2008/06/18",prtIndex:14},{name:"山南地区",index:54,lat:28.139820,lng:93.114620,date:"2008/06/19",prtIndex:15},{name:"拉萨市",index:55,lat:29.654967,lng:91.119239,date:"2008/06/20-2008/06/21",prtIndex:15},{name:"格尔木市",index:56,lat:36.403600,lng:94.894410,date:"2008/06/22",prtIndex:16},{name:"青海湖",index:57,lat:37.160320,lng:100.173340,date:"2008/06/23",prtIndex:16},{name:"西宁市",index:58,lat:36.624350,lng:101.804810,date:"2008/06/24",prtIndex:16},{name:"乌鲁木齐市",index:59,lat:43.796078,lng:87.603809,date:"2008/06/25",prtIndex:17},{name:"喀什市",index:60,lat:39.457400,lng:75.997920,date:"2008/06/26",prtIndex:17},{name:"石河子市",index:61,lat:44.300260,lng:86.028440,date:"2008/06/27",prtIndex:17},{name:"昌吉市",index:62,lat:44.016520,lng:87.302860,date:"2008/06/27",prtIndex:17},{name:"敦煌",index:63,lat:40.136890,lng:94.663700,date:"2008/06/28",prtIndex:18},{name:"嘉峪关市",index:64,lat:39.800100,lng:98.272710,date:"2008/06/28",prtIndex:18},{name:"酒泉",index:65,lat:39.745210,lng:98.508910,date:"2008/06/29",prtIndex:18},{name:"天水市",index:66,lat:34.578950,lng:105.721440,date:"2008/06/30",prtIndex:18},{name:"兰州市",index:67,lat:36.062420,lng:103.793330,date:"2008/06/30",prtIndex:18},{name:"中卫市",index:68,lat:37.509730,lng:105.188600,date:"2008/07/02",prtIndex:19},{name:"吴忠市",index:69,lat:37.983170,lng:106.193850,date:"2008/07/03",prtIndex:19},{name:"银川市",index:70,lat:38.466490,lng:106.270750,date:"2008/07/04",prtIndex:19},{name:"延安市",index:71,lat:36.593320,lng:109.496500,date:"2008/07/05",prtIndex:20},{name:"杨凌",index:72,lat:34.263640,lng:108.093880,date:"2008/07/06",prtIndex:20},{name:"咸阳市",index:73,lat:34.326785,lng:108.709880,date:"2008/07/06",prtIndex:20},{name:"西安市",index:74,lat:34.264915,lng:108.954401,date:"2008/07/07",prtIndex:20},{name:"运城市",index:75,lat:35.025500,lng:110.989380,date:"2008/07/08",prtIndex:21},{name:"平遥县",index:76,lat:37.200604,lng:112.206497,date:"2008/07/08",prtIndex:21},{name:"太原市",index:77,lat:37.855122,lng:112.531482,date:"2008/07/09",prtIndex:21},{name:"大同市",index:78,lat:40.090680,lng:113.285520,date:"2008/07/10",prtIndex:21},{name:"呼和浩特市",index:79,lat:40.808262,lng:111.666650,date:"2008/07/11",prtIndex:22},{name:"鄂尔多斯市",index:80,lat:39.183300,lng:109.000850,date:"2008/07/12",prtIndex:22},{name:"包头市",index:81,lat:40.661650,lng:109.871284,date:"2008/07/12",prtIndex:22},{name:"赤峰市",index:82,lat:42.269180,lng:118.959960,date:"2008/07/13",prtIndex:22},{name:"齐齐哈尔市",index:83,lat:47.341587,lng:123.937168,date:"2008/07/14",prtIndex:23},{name:"大庆市",index:84,lat:46.616253,lng:124.881912,date:"2008/07/15",prtIndex:23},{name:"哈尔滨市",index:85,lat:45.761273,lng:126.652187,date:"2008/07/16",prtIndex:23},{name:"松原市",index:86,lat:45.178160,lng:124.815670,date:"2008/07/17",prtIndex:24},{name:"长春市",index:87,lat:43.886862,lng:125.324793,date:"2008/07/17",prtIndex:24},{name:"吉林市",index:88,lat:43.845837,lng:126.571344,date:"2008/07/18",prtIndex:24},{name:"延吉市",index:89,lat:43.127915,lng:129.368798,date:"2008/07/19",prtIndex:24},{name:"沈阳市",index:90,lat:41.805674,lng:123.434041,date:"2008/07/20",prtIndex:25},{name:"本溪市",index:91,lat:41.298398,lng:123.785604,date:"2008/07/21",prtIndex:25},{name:"辽阳市",index:92,lat:41.277778,lng:123.179139,date:"2008/07/21",prtIndex:25},{name:"鞍山市",index:93,lat:41.115760,lng:123.002341,date:"2008/07/21",prtIndex:25},{name:"大连市",index:94,lat:38.921633,lng:121.643907,date:"2008/07/22",prtIndex:25},{name:"烟台市",index:95,lat:37.537894,lng:121.392346,date:"2008/07/23",prtIndex:26},{name:"威海市",index:96,lat:37.504293,lng:122.122098,date:"2008/07/23",prtIndex:26},{name:"青岛市",index:97,lat:36.083992,lng:120.356841,date:"2008/07/24",prtIndex:26},{name:"日照市",index:98,lat:35.424870,lng:119.454350,date:"2008/07/24",prtIndex:26},{name:"临沂市",index:99,lat:35.061480,lng:118.328250,date:"2008/07/25",prtIndex:26},{name:"曲阜市",index:100,lat:35.599250,lng:116.982420,date:"2008/07/25",prtIndex:26},{name:"泰安市",index:101,lat:36.193673,lng:117.131979,date:"2008/07/25",prtIndex:26},{name:"济南市",index:102,lat:36.659354,lng:117.020598,date:"2008/07/26",prtIndex:26},{name:"商丘市",index:103,lat:34.447690,lng:115.636600,date:"2008/07/28",prtIndex:27},{name:"开封市",index:104,lat:34.789310,lng:114.340217,date:"2008/07/28",prtIndex:27},{name:"郑州市",index:105,lat:34.761869,lng:113.663040,date:"2008/07/29",prtIndex:27},{name:"洛阳市",index:106,lat:34.656681,lng:112.400527,date:"2008/07/30",prtIndex:27},{name:"安阳市",index:107,lat:36.111206,lng:114.346097,date:"2008/07/31",prtIndex:27},{name:"石家庄市",index:108,lat:38.048270,lng:114.476493,date:"2008/08/01",prtIndex:28},{name:"秦皇岛市",index:109,lat:39.947894,lng:119.589566,date:"2008/08/02",prtIndex:28},{name:"唐山市",index:110,lat:39.678655,lng:118.153839,date:"2008/08/03",prtIndex:28},{name:"天津市",index:111,lat:39.103853,lng:117.252380,date:"2008/08/04-2008/08/05",prtIndex:29},{name:"北京市",index:112,lat:39.908170,lng:116.397945,date:"2008/08/06-2008/08/08",prtIndex:30}]},
{localizedText:{worldLink:'全球',chinaLink:'中国内地',learnMore:"Learn more about"}},
{localizedContainerText:{title:"Torch Relay", header:"Track the torch in your country and around the world.", body:"<p>An ongoing tradition from 766 B.C. has been to ignite the torch at the ancient site in Olympia, Greece. From March 25th until the start of May, the Torch Relay will travel across Greece, into Beijing, and then around the world through cities, oceans, and even the world's highest mountain, Mt. Everest.</p><p>Watch relay video footage and track the current torch location on Google Maps.</p>", button:"Add to website", ge_link:"New! Track the torch in Google Earth. Don't have Google Earth? Download it here.", attribution:"Video courtesy of CCTV.com"}}]